{
  "name": "Kennesaw State University",
  "campus": "Main Kennesaw Campus",
  "address": "1000 Chastain Road, Kennesaw GA, 30144",
  "semester": "FALL 2026",
  "addDropDeadline": "2025-08-21",
  "offices": {
    "admissions": {
      "name": "Admissions Office",
      "phone": "770-423-6300",
      "hours": "Mo-Fr 8:00 AM - 5:00 PM",
      "location": "Kennesaw Hall, Room 1300"
    },
    "financial aid": {
      "name": "Financial Aid",
      "phone": "770-423-6074",
      "hours": "Mo-F 8:00 AM - 5:00 PM",
      "location": "Kennesaw Hall, Room 1200"
    },
    "bursars": {
      "name": "Bursar's Office",
      "phone": "770-423-6310",
      "hours": "Mo-Fr 8:00 AM - 5:00 PM",
      "location": "Kennesaw Hall, Room 1100"
    },
    "registrar": {
      "name": "Registrar's Office",
      "phone": "770-423-6200",
      "hours": "Mr-Fr 8:00 AM - 5:00 PM",
      "location": "Kennesaw Hall, Room 1400"
    },
    "advising": {
      "name": "Advising Center",
      "phone": "770-423-6600",
      "hours": "Mo-Fr, 8:00 AM - 5:00 PM",
      "location": "Various advising offices across campus"
    },
    "cafeteria": {
      "name": "The Commons",
      "phone": "478-578-2902",
      "hours": "Mo-Fr 7:00 AM - 7:00 PM, Sa: 10:30 AM - 7:00 PM, Su: 10:30 AM - 9:00 PM",
      "location": "Student Center"
    },
    "library": {
      "name": "Sturgis Library",
      "phone": "770-423-6200",
      "hours": "Mo-Fr 8:00 AM - 10:00 PM",
      "location": "Sturgis Library"
    },
    "tech suport": {
      "name": "UITS I.T. Technical Support",
      "phone": "470-578-6999",
      "hours": "Mo-Th: 7:30 AM - 10:00 PM / Fr: 7:30 AM - 5:00 PM / Sa: 8:00 AM - 5:00 PM / Su: 1:00 PM - 5:00 PM"
    },
    "campus police": {
      "name": "Campus Police",
      "phone": "770-423-6666",
      "hours": "24/7/365",
      "location": "Campus Police Headquarters"
    },
    "health services": {
      "name": "Student Health Services",
      "phone": "770-423-6644",
      "hours": "Mo-Fr, 8:00 AM - 5:00 PM",
      "location": "Student Health Services Building"
    }
  }
}
